[
  {
    "title": "Kapitel",
    "street": "Bollwerk 41",
    "city": "Bern",
    "state": "Bern",
    "zip": "3011",
    "venue-type": "Nightclub",
    "info": "My favorite nightclub in Bern, I used to work there as sound and light technician",
    "url": "http://www.kapitel.ch",
    "pos": {"lat":46.951697,"lng":7.44173},
    "placeId": "ChIJGWSmlb85jkcR1QO3_6igsCE"
  },
  {
    "title": "Stufenbau Event Location",
    "street": "Pulverstrasse 8",
    "city": "Ittigen",
    "state": "Bern",
    "zip": "3063",
    "venue-type": "Event Location",
    "info": "Great location for all kinds of events, I was part of a couple of event productions there",
    "url": "http://www.stufenbau.ch",
    "pos": {"lat":46.976914,"lng":7.469007},
    "placeId": "ChIJIyUH6wY6jkcRjgUX2k5Fmoc"
  },
  {
    "title": "Marzili Public Open-Air Pool",
    "street": "Marzilistrasse 29",
    "city": "Bern",
    "state": "Bern",
    "zip": "3005",
    "venue-type": "Open-Air Pool",
    "info": "The place to be in summer if it's hot. And you get to swim in the river Aare too!",
    "url": "https://www.badi-info.ch/be/marzili.html",
    "pos": {"lat":46.94242,"lng":7.443781},
    "placeId": "ChIJP-X3iMg5jkcRftert7Z3TKs"
  },
  {
    "title": "Rose Garden",
    "street": "Aargauerstalden 31B",
    "city": "Bern",
    "state": "Bern",
    "zip": "3006",
    "venue-type": "Park",
    "info": "From this park you have the best view over downtown Bern",
    "url": "https://www.bern.com/en/detail/the-rose-garden",
    "pos": {"lat":46.952053,"lng":7.460452},
    "placeId": "ChIJA7Gr8N05jkcRFuz2DUloIRw"
  },
  {
    "title": "Bundeshaus",
    "street": "Bundeshausplatz 3",
    "city": "Bern",
    "state": "Bern",
    "zip": "3005",
    "venue-type": "The Swiss Parliament Building",
    "info": "Everybody can go in and attend a debate of the national council",
    "url": "https://www.parlament.ch/en/services/visiting-the-parliament-building",
    "pos": {"lat":46.946543,"lng":7.444254},
    "placeId": "ChIJ7QMXJsc5jkcRdcaSO2ngq74"
  }
]