[
  {
    "name": "Kapitel",
    "street": "Bollwerk 41",
    "city": "Bern",
    "state": "Bern",
    "zip": "3011",
    "venue-type": "Nightclub",
    "connection": "my favorite venue in Bern, I used to work there as sound and light technician",
    "url": "http://www.kapitel.ch",
    "pos": {"lat":46.951697,"lng":7.44173}
  },
  {
    "name": "Stufenbau Event Location",
    "street": "Bollwerk 41",
    "city": "Bern",
    "state": "Bern",
    "zip": "3011",
    "venue-type": "Nightclub",
    "connection": "my favorite venue in Bern, I used to work there as sound and light technician",
    "url": "http://www.kapitel.ch",
    "pos": {"lat":46.951697,"lng":7.44173}
  },
  {
    "name": "Kapitel",
    "street": "Bollwerk 41",
    "city": "Bern",
    "state": "Bern",
    "zip": "3011",
    "venue-type": "Nightclub",
    "connection": "my favorite venue in Bern, I used to work there as sound and light technician",
    "url": "http://www.kapitel.ch",
    "pos": {"lat":46.951697,"lng":7.44173}
  },
  {
    "name": "Kapitel",
    "street": "Bollwerk 41",
    "city": "Bern",
    "state": "Bern",
    "zip": "3011",
    "venue-type": "Nightclub",
    "connection": "my favorite venue in Bern, I used to work there as sound and light technician",
    "url": "http://www.kapitel.ch",
    "pos": {"lat":46.951697,"lng":7.44173}
  },
  {
    "name": "Kapitel",
    "street": "Bollwerk 41",
    "city": "Bern",
    "state": "Bern",
    "zip": "3011",
    "venue-type": "Nightclub",
    "connection": "my favorite venue in Bern, I used to work there as sound and light technician",
    "url": "http://www.kapitel.ch",
    "pos": {"lat":46.951697,"lng":7.44173}
  }
]